{
    "Default": [
        {
            "title": "Home",
            "target": "Default",
            "lat": "24.1740760",
            "lng": "120.6460720",
            "time": 1609694667234
        },
        {
            "title": "東京寶可夢公園 PokéPark Kanto",
            "target": "Default",
            "lat": 35.62616,
            "lng": 139.521621,
            "time": 1781134361661
        },
        {
            "title": "印尼雅加達雄牛廣場",
            "target": "Default",
            "lat": -6.170614325343832,
            "lng": 106.83043241500856,
            "time": 1780490481311
        },
        {
            "title": "西班牙練功區",
            "lat": "41.6625110",
            "lng": "-0.8949380"
        },
        {
            "title": "紐約中央公園寶可夢道館",
            "target": "Default",
            "lat": "40.7737510",
            "lng": "-73.9759540",
            "time": 1722559217858
        },
        {
            "title": "丹麥哥本哈根費爾德公園",
            "target": "Default",
            "lat": 55.701665898651,
            "lng": 12.567621672444,
            "time": 1781134214704
        },
        {
            "title": "丹麥哥本哈根皇家劇場",
            "target": "Default",
            "lat": 55.68020978237163,
            "lng": 12.594623565673828,
            "time": 1781134275921
        },
        {
            "title": "墨西哥艾美達中央公園",
            "target": "Default",
            "lat": "19.4351180",
            "lng": "-99.1447300",
            "time": 1725769893821
        },
        {
            "title": "墨西哥革命紀念塔",
            "target": "Default",
            "lat": "19.4361600",
            "lng": "-99.1546210",
            "time": 1725802356627
        },
        {
            "title": "墨西哥寶可夢Play補給站",
            "target": "Default",
            "lat": "19.4315220",
            "lng": "-99.1485110",
            "time": 1725802527229
        },
        {
            "title": "印尼雅加達Central Park Mall",
            "target": "Default",
            "lat": "-6.1774500",
            "lng": "106.7904690",
            "time": 1726914182031
        },
        {
            "title": "台北大安森林公園",
            "target": "Default",
            "lat": "25.0331810",
            "lng": "121.5353950",
            "time": 1734150241655
        },
        {
            "title": "台北車站",
            "target": "Default",
            "lat": "25.0478900",
            "lng": "121.5174270",
            "time": 1740563981593
        },
        {
            "title": "舊金山39號碼頭",
            "target": "Default",
            "lat": "37.8087110",
            "lng": "-122.4102270",
            "time": 1704295104984
        },
        {
            "title": "洛杉磯天使之后教堂",
            "target": "Default",
            "lat": "34.0568710",
            "lng": "-118.2477280",
            "time": 1685665828818
        },
        {
            "title": "馬來西亞KLCC Park",
            "target": "Default",
            "lat": "3.1560850",
            "lng": "101.7136320",
            "time": 1721259391669
        },
        {
            "title": "南屯八豆食府",
            "lat": "24.1507990",
            "lng": "120.6478020"
        },
        {
            "title": "FCU Plazza",
            "target": "Default",
            "lat": "24.1788370",
            "lng": "120.6482240",
            "time": 1614143617185
        },
        {
            "title": "FCU Park",
            "target": "Default",
            "lat": "24.1764640",
            "lng": "120.6406820",
            "time": 1614143695306
        },
        {
            "title": "逢甲翰林三花聚鼎",
            "target": "Default",
            "lat": "24.1746000",
            "lng": "120.6464540",
            "time": 1614144929821
        },
        {
            "title": "中僑宴會廳(7補給站)",
            "lat": "24.1627790",
            "lng": "120.6478700"
        },
        {
            "title": "新光大遠百(1大4小)",
            "lat": "24.1654340",
            "lng": "120.6444460"
        },
        {
            "title": "市政耕讀園(1大4小)",
            "lat": "24.1573240",
            "lng": "120.6406850"
        },
        {
            "title": "惠來公園(1大5小)",
            "lat": "24.1555080",
            "lng": "120.6398660"
        },
        {
            "title": "兼六園 市政南二路(1大4小)",
            "lat": "24.1558670",
            "lng": "120.6361970"
        },
        {
            "title": "欣中天然氣 文心西屯路(1大4小)",
            "lat": "24.1673890",
            "lng": "120.6548950"
        },
        {
            "title": "何厝公園涼亭(1大4小)",
            "lat": "24.1613680",
            "lng": "120.6546890"
        },
        {
            "title": "精明一街(1大5小)",
            "lat": "24.1554740",
            "lng": "120.6555470"
        },
        {
            "title": "文心森林公園(西)",
            "target": "Default",
            "lat": "24.1459730",
            "lng": "120.6439200",
            "time": 1614184057873
        },
        {
            "title": "文心森林公園(東)",
            "target": "Default",
            "lat": "24.1457940",
            "lng": "120.6458370",
            "time": 1614184344785
        },
        {
            "title": "豐樂雕塑公園(2大5小)",
            "lat": "24.1312000",
            "lng": "120.6422730"
        },
        {
            "title": "南屯靜思堂(1大4小)",
            "target": "Default",
            "lat": "24.1312000",
            "lng": "120.6422730",
            "time": 1614184925794
        },
        {
            "title": "南屯清真寺(2大2小)",
            "target": "Default",
            "lat": "24.1312000",
            "lng": "120.6422730",
            "time": 1614185078650
        },
        {
            "title": "逢甲學思湖(2大3小)",
            "target": "Default",
            "lat": "24.1312000",
            "lng": "120.6422730",
            "time": 1614185249601
        },
        {
            "title": "福星公園(1大4小)",
            "lat": "24.1722540",
            "lng": "120.6490820"
        },
        {
            "title": "北屯路兒童公園(2大4小)",
            "target": "Default",
            "lat": "24.1695870",
            "lng": "120.6954290",
            "time": 1614340681120
        },
        {
            "title": "學士路美德街公園(1大4小)(6道館)",
            "lat": "24.1562030",
            "lng": "120.6819500"
        },
        {
            "title": "三官大帝拱門(2大3小)",
            "target": "Default",
            "lat": "24.1590980",
            "lng": "120.6886870",
            "time": 1614341686379
        },
        {
            "title": "法蒂瑪聖母堂(1大5小)",
            "target": "Default",
            "lat": "24.1567020",
            "lng": "120.6899760",
            "time": 1614341787414
        },
        {
            "title": "青海路上石路(6補給站)",
            "lat": "24.1710250",
            "lng": "120.6452440"
        },
        {
            "title": "秋紅谷(1大5小)",
            "lat": "24.1667280",
            "lng": "120.6380590"
        },
        {
            "title": "新市政公園(1大6小)",
            "target": "Default",
            "lat": "24.1607660",
            "lng": "120.6462160",
            "time": 1616848958239
        },
        {
            "title": "逢甲公園(1大7小)",
            "target": "Default",
            "lat": "24.1764760",
            "lng": "120.6404040",
            "time": 1616849198627
        },
        {
            "title": "三信公園(3大2小)",
            "target": "Default",
            "lat": "24.1661870",
            "lng": "120.6630550",
            "time": 1617282719660
        },
        {
            "title": "和美糖友里",
            "target": "Default",
            "lat": "24.1096430",
            "lng": "120.5303800",
            "time": 1706161285979
        },
        {
            "title": "東勢",
            "target": "Default",
            "lat": "24.2498580",
            "lng": "120.8306120",
            "time": 1707631733041
        },
        {
            "title": "義大利卡布里島",
            "target": "Default",
            "lat": "40.5499460",
            "lng": "14.2442320",
            "time": 1721783597372
        },
        {
            "title": "南韓佔道館區",
            "target": "Default",
            "lat": "37.8666370",
            "lng": "126.7854140",
            "time": 1721804410479
        },
        {
            "title": "泰國曼谷練功區",
            "target": "Default",
            "lat": "13.7324910",
            "lng": "100.5316030",
            "time": 1725367390745
        },
        {
            "title": "新北大都會公園",
            "target": "Default",
            "lat": "25.0603210",
            "lng": "121.4785290",
            "time": 1740171683330
        },
        {
            "title": "韓國汝矣島公園",
            "target": "Default",
            "lat": "37.5224100",
            "lng": "126.9217000",
            "time": 1743417557675
        }
    ],
    "寶可夢中心": [
        {
            "title": "台北寶可夢中心",
            "target": "寶可夢中心",
            "lat": 25.0366308,
            "lng": 121.56734169,
            "time": 1780491157282
        },
        {
            "title": "東京池袋寶可夢中心",
            "target": "寶可夢中心",
            "lat": 35.729003653296715,
            "lng": 139.71931457519534,
            "time": 1780491268711
        },
        {
            "title": "東京澀谷寶可夢中心",
            "target": "寶可夢中心",
            "lat": 35.6620111,
            "lng": 139.6989821,
            "time": 1780491314808
        },
        {
            "title": "東京日本橋寶可夢中心",
            "target": "寶可夢中心",
            "lat": 35.6805346,
            "lng": 139.7744125,
            "time": 1780491386283
        },
        {
            "title": "東京晴空塔寶可夢中心",
            "target": "寶可夢中心",
            "lat": 35.7100217,
            "lng": 139.8122692,
            "time": 1780491426647
        },
        {
            "title": "東京車站寶可夢中心",
            "target": "寶可夢中心",
            "lat": 35.6826597,
            "lng": 139.7688646,
            "time": 1780491484030
        },
        {
            "title": "大阪DX寶可夢中心",
            "target": "寶可夢中心",
            "lat": 34.67329391729077,
            "lng": 135.5007576942444,
            "time": 1780491641300
        },
        {
            "title": "大阪梅田寶可夢中心",
            "target": "寶可夢中心",
            "lat": 34.7019067,
            "lng": 135.4964453,
            "time": 1780491738874
        },
        {
            "title": "沖繩寶可夢中心",
            "target": "寶可夢中心",
            "lat": 26.3142522,
            "lng": 127.7962361,
            "time": 1780491787602
        },
        {
            "title": "京都寶可夢中心",
            "target": "寶可夢中心",
            "lat": 35.0033675,
            "lng": 135.7583695,
            "time": 1780491837252
        },
        {
            "title": "札幌寶可夢中心",
            "target": "寶可夢中心",
            "lat": 43.0676999,
            "lng": 141.3491294,
            "time": 1780491906904
        },
        {
            "title": "名古屋店寶可夢中心",
            "target": "寶可夢中心",
            "lat": 35.163926,
            "lng": 136.908317,
            "time": 1780491943250
        },
        {
            "title": "福岡寶可夢中心",
            "target": "寶可夢中心",
            "lat": 33.5895017,
            "lng": 130.4192165,
            "time": 1780491998420
        },
        {
            "title": "廣島寶可夢中心",
            "target": "寶可夢中心",
            "lat": 34.3959748,
            "lng": 132.4568877,
            "time": 1780492085880
        },
        {
            "title": "四國香川寶可夢中心",
            "target": "寶可夢中心",
            "lat": 34.3422187,
            "lng": 134.0501617,
            "time": 1780492133840
        },
        {
            "title": "橫濱Satellite寶可夢中心",
            "target": "寶可夢中心",
            "lat": 35.4646424,
            "lng": 139.6246111,
            "time": 1780492200823
        },
        {
            "title": "東京灣寶可夢中心",
            "target": "寶可夢中心",
            "lat": 35.6874657,
            "lng": 139.989236,
            "time": 1780492264821
        },
        {
            "title": "成田機場寶可夢商店",
            "target": "寶可夢中心",
            "lat": 35.7799931,
            "lng": 140.3838223,
            "time": 1780492306267
        },
        {
            "title": "新千歲機場寶可夢商店",
            "target": "寶可夢中心",
            "lat": 42.8538289,
            "lng": 141.6991575,
            "time": 1780492354521
        },
        {
            "title": "仙台寶可夢中心",
            "target": "寶可夢中心",
            "lat": 38.2620474,
            "lng": 140.8816686,
            "time": 1780493101148
        },
        {
            "title": "木更津寶可夢中心",
            "target": "寶可夢中心",
            "lat": 35.4349268,
            "lng": 139.9358524,
            "time": 1780493163859
        },
        {
            "title": "金澤寶可夢中心",
            "target": "寶可夢中心",
            "lat": 36.5793218,
            "lng": 136.6497897,
            "time": 1780493225432
        },
        {
            "title": "御殿場寶可夢中心",
            "target": "寶可夢中心",
            "lat": 35.3069677,
            "lng": 138.967085,
            "time": 1780493275932
        },
        {
            "title": "新加坡樟宜機場寶可夢中心",
            "target": "寶可夢中心",
            "lat": 1.3609193,
            "lng": 103.9902262,
            "time": 1780493363246
        },
        {
            "title": "泰國曼谷寶可夢中心",
            "target": "寶可夢中心",
            "lat": 13.7475798,
            "lng": 100.5394204,
            "time": 1780493408360
        }
    ],
    "粉蝶蟲代表位置": [
        {
            "title": "雪國 - 加拿大多倫多",
            "target": "粉蝶蟲代表位置",
            "lat": 43.652828,
            "lng": -79.3838171,
            "time": 1780900512032
        },
        {
            "title": "雪國 - 芬蘭瑪莉港",
            "target": "粉蝶蟲代表位置",
            "lat": 60.0985166,
            "lng": 19.9437813,
            "time": 1780900606575
        },
        {
            "title": "雪原 - 日本札幌",
            "target": "粉蝶蟲代表位置",
            "lat": 43.0680462,
            "lng": 141.350991,
            "time": 1780900720230
        },
        {
            "title": "雪原 - 挪威卑爾根",
            "target": "粉蝶蟲代表位置",
            "lat": 60.391877,
            "lng": 5.3231331,
            "time": 1780900768367
        },
        {
            "title": "大陸 - 比利時布鲁塞爾",
            "target": "粉蝶蟲代表位置",
            "lat": 50.8460189,
            "lng": 4.3570846,
            "time": 1780900819454
        },
        {
            "title": "大陸 - 捷克布拉格",
            "target": "粉蝶蟲代表位置",
            "lat": 50.086861,
            "lng": 14.4211045,
            "time": 1780900848870
        },
        {
            "title": "大陸 - 丹麥哥本哈根",
            "target": "粉蝶蟲代表位置",
            "lat": 55.6729676,
            "lng": 12.5650289,
            "time": 1780900883550
        },
        {
            "title": "大陸 - 阿姆斯特丹中央車站",
            "target": "粉蝶蟲代表位置",
            "lat": 52.379,
            "lng": 4.9,
            "time": 1780987000000
        },
        {
            "title": "大陸 - 韓國首爾站",
            "target": "粉蝶蟲代表位置",
            "lat": 37.555,
            "lng": 126.971,
            "time": 1780987030000
        },
        {
            "title": "庭園 - 紐西蘭奧克蘭",
            "target": "粉蝶蟲代表位置",
            "lat": -36.848113,
            "lng": 174.7628416,
            "time": 1780900930702
        },
        {
            "title": "庭園 - 澳大利亞荷巴特",
            "target": "粉蝶蟲代表位置",
            "lat": -42.8819038,
            "lng": 147.3272393,
            "time": 1780900976925
        },
        {
            "title": "庭園 - 英國倫敦國王十字車站",
            "target": "粉蝶蟲代表位置",
            "lat": 51.532,
            "lng": -0.123,
            "time": 1780987060000
        },
        {
            "title": "高雅 - 日本東京站",
            "target": "粉蝶蟲代表位置",
            "lat": 35.6813586,
            "lng": 139.7671683,
            "time": 1780901050645
        },
        {
            "title": "高雅 - 東京迪士尼",
            "target": "粉蝶蟲代表位置",
            "lat": 35.6326235,
            "lng": 139.8805578,
            "time": 1780901222101
        },
        {
            "title": "太陽 - 澳大利亞達爾文市",
            "target": "粉蝶蟲代表位置",
            "lat": -12.463,
            "lng": 130.846,
            "time": 1780987090000
        },
        {
            "title": "太陽 - 墨西哥城憲法廣場",
            "target": "粉蝶蟲代表位置",
            "lat": 19.433,
            "lng": -99.133,
            "time": 1780987120000
        },
        {
            "title": "太陽 - 尼加拉瓜馬拿瓜",
            "target": "粉蝶蟲代表位置",
            "lat": 12.115,
            "lng": -86.236,
            "time": 1780987150000
        },
        {
            "title": "太陽 - 薩爾瓦多聖薩爾瓦多",
            "target": "粉蝶蟲代表位置",
            "lat": 13.693,
            "lng": -89.218,
            "time": 1780987180000
        },
        {
            "title": "花園 - 西班牙巴塞隆納",
            "target": "粉蝶蟲代表位置",
            "lat": 41.38146169800738,
            "lng": 2.172760963439942,
            "time": 1780901415876
        },
        {
            "title": "花園 - 義大利米蘭中央車站",
            "target": "粉蝶蟲代表位置",
            "lat": 45.486,
            "lng": 9.204,
            "time": 1780987210000
        },
        {
            "title": "花園 - 瑞士蘇黎世中央車站",
            "target": "粉蝶蟲代表位置",
            "lat": 47.378,
            "lng": 8.54,
            "time": 1780987240000
        },
        {
            "title": "摩登 - 美國紐約時代廣場",
            "target": "粉蝶蟲代表位置",
            "lat": 40.759,
            "lng": -73.985,
            "time": 1780987270000
        },
        {
            "title": "摩登 - 美國紐約中央公園",
            "target": "粉蝶蟲代表位置",
            "lat": 40.783,
            "lng": -73.965,
            "time": 1780987300000
        },
        {
            "title": "大海 - 葡萄牙里斯本羅西奧廣場",
            "target": "粉蝶蟲代表位置",
            "lat": 38.714,
            "lng": -9.14,
            "time": 1780987330000
        },
        {
            "title": "大海 - 德國慕尼黑中央車站",
            "target": "粉蝶蟲代表位置",
            "lat": 48.14,
            "lng": 11.558,
            "time": 1780987360000
        },
        {
            "title": "大海 - 西班牙馬德里太陽門廣場",
            "target": "粉蝶蟲代表位置",
            "lat": 40.417,
            "lng": -3.704,
            "time": 1780987390000
        },
        {
            "title": "大海 - 土耳其伊斯坦堡塔克西姆廣場",
            "target": "粉蝶蟲代表位置",
            "lat": 41.037,
            "lng": 28.985,
            "time": 1780987420000
        },
        {
            "title": "群島 - 美國邁阿密南海灘",
            "target": "粉蝶蟲代表位置",
            "lat": 25.791,
            "lng": -80.13,
            "time": 1780987450000
        },
        {
            "title": "群島 - 巴哈馬拿索",
            "target": "粉蝶蟲代表位置",
            "lat": 25.044,
            "lng": -77.35,
            "time": 1780987480000
        },
        {
            "title": "群島 - 多明尼加聖多明哥",
            "target": "粉蝶蟲代表位置",
            "lat": 18.486,
            "lng": -69.931,
            "time": 1780987510000
        },
        {
            "title": "群島 - 南非開普敦",
            "target": "粉蝶蟲代表位置",
            "lat": -33.906,
            "lng": 18.421,
            "time": 1780987540000
        },
        {
            "title": "荒野 - 加拿大溫哥華市中心",
            "target": "粉蝶蟲代表位置",
            "lat": 49.283,
            "lng": -123.121,
            "time": 1780987570000
        },
        {
            "title": "荒野 - 美國洛杉磯聯合車站",
            "target": "粉蝶蟲代表位置",
            "lat": 34.056,
            "lng": -118.237,
            "time": 1780987600000
        },
        {
            "title": "荒野 - 土耳其里澤市中心",
            "target": "粉蝶蟲代表位置",
            "lat": 41.026,
            "lng": 40.518,
            "time": 1780987630000
        },
        {
            "title": "沙塵 - 阿拉伯杜拜哈里發塔",
            "target": "粉蝶蟲代表位置",
            "lat": 25.197,
            "lng": 55.274,
            "time": 1780987660000
        },
        {
            "title": "沙塵 - 賽普勒斯尼科西亞",
            "target": "粉蝶蟲代表位置",
            "lat": 35.186,
            "lng": 33.382,
            "time": 1780987690000
        },
        {
            "title": "沙塵 - 土耳其安卡拉",
            "target": "粉蝶蟲代表位置",
            "lat": 39.921,
            "lng": 32.854,
            "time": 1780987720000
        },
        {
            "title": "大河 - 澳大利亞雪梨中央車站",
            "target": "粉蝶蟲代表位置",
            "lat": -33.883,
            "lng": 151.207,
            "time": 1780987750000
        },
        {
            "title": "大河 - 南非約翰尼斯堡桑頓",
            "target": "粉蝶蟲代表位置",
            "lat": -26.108,
            "lng": 28.057,
            "time": 1780987780000
        },
        {
            "title": "大河 - 西班牙拉斯帕爾馬斯",
            "target": "粉蝶蟲代表位置",
            "lat": 28.123,
            "lng": -15.436,
            "time": 1780987810000
        },
        {
            "title": "大洋 - 美國檀香山",
            "target": "粉蝶蟲代表位置",
            "lat": 21.277,
            "lng": -157.826,
            "time": 1780987840000
        },
        {
            "title": "大洋 - 法國聖但尼",
            "target": "粉蝶蟲代表位置",
            "lat": -20.879,
            "lng": 55.448,
            "time": 1780987870000
        },
        {
            "title": "驟雨 - 台北車站",
            "target": "粉蝶蟲代表位置",
            "lat": 25.048,
            "lng": 121.517,
            "time": 1780987900000
        },
        {
            "title": "驟雨 - 印度新德里康諾特廣場",
            "target": "粉蝶蟲代表位置",
            "lat": 28.631,
            "lng": 77.217,
            "time": 1780987930000
        },
        {
            "title": "驟雨 - 泰國曼谷",
            "target": "粉蝶蟲代表位置",
            "lat": 13.748544,
            "lng": 100.497349,
            "time": 1780987960000
        },
        {
            "title": "熱帶草原 - 巴西聖保羅",
            "target": "粉蝶蟲代表位置",
            "lat": -23.561,
            "lng": -46.656,
            "time": 1780987990000
        },
        {
            "title": "熱帶草原 - 阿根廷布宜諾斯艾利斯",
            "target": "粉蝶蟲代表位置",
            "lat": -34.604,
            "lng": -58.382,
            "time": 1780988020000
        },
        {
            "title": "熱帶草原 - 玻利維亞聖克魯斯市",
            "target": "粉蝶蟲代表位置",
            "lat": -17.783,
            "lng": -63.182,
            "time": 1780988050000
        },
        {
            "title": "熱帶雨林 - 巴西瑪瑙斯市",
            "target": "粉蝶蟲代表位置",
            "lat": -3.119,
            "lng": -60.022,
            "time": 1780988080000
        },
        {
            "title": "熱帶雨林 - 新加坡節路",
            "target": "粉蝶蟲代表位置",
            "lat": 1.305,
            "lng": 103.832,
            "time": 1780988110000
        },
        {
            "title": "熱帶雨林 - 馬來西亞吉隆坡雙子塔",
            "target": "粉蝶蟲代表位置",
            "lat": 3.158,
            "lng": 101.712,
            "time": 1780988140000
        }
    ],
    "日本-中央聯盟": [
        {
            "title": "讀賣巨人(東京巨蛋)",
            "target": "日本-中央聯盟",
            "lat": "35.7054348",
            "lng": "139.7520898"
        },
        {
            "title": "阪神虎(阪神甲子園球場)",
            "target": "日本-中央聯盟",
            "lat": "34.7218715",
            "lng": "135.3615605"
        },
        {
            "title": "廣島東洋鯉魚(馬自達廣島球場)",
            "target": "日本-中央聯盟",
            "lat": "34.3920282",
            "lng": "132.4845768"
        },
        {
            "title": "橫濱DeNA灣星(橫濱球場)",
            "target": "日本-中央聯盟",
            "lat": "35.4433238",
            "lng": "139.6401109"
        },
        {
            "title": "東京養樂多燕子(明治神宮野球場)",
            "target": "日本-中央聯盟",
            "lat": "35.6746059",
            "lng": "139.7170659"
        },
        {
            "title": "中日龍(名古屋巨蛋)",
            "target": "日本-中央聯盟",
            "lat": "35.1861565",
            "lng": "136.9473892"
        }
    ],
    "日本-太平洋聯盟": [
        {
            "title": "福岡軟銀鷹(福岡巨蛋)",
            "target": "日本-太平洋聯盟",
            "lat": "33.5947763",
            "lng": "130.3621233"
        },
        {
            "title": "歐力士野牛(大阪巨蛋)",
            "target": "日本-太平洋聯盟",
            "lat": "34.6694745",
            "lng": "135.4762714"
        },
        {
            "title": "北海道日本火腿鬥士(ES CON FIELD HOKKAIDO)",
            "target": "日本-太平洋聯盟",
            "lat": "42.9906083",
            "lng": "141.5493138"
        },
        {
            "title": "千葉羅德海洋(千葉海洋球場)",
            "target": "日本-太平洋聯盟",
            "lat": "35.6462876",
            "lng": "140.0305893"
        },
        {
            "title": "東北樂天金鷲(宮城球場)",
            "target": "日本-太平洋聯盟",
            "lat": "38.2565258",
            "lng": "140.9025475"
        },
        {
            "title": "埼玉西武獅(西武巨蛋)",
            "target": "日本-太平洋聯盟",
            "lat": "35.7687316",
            "lng": "139.4205191"
        }
    ],
    "MLB": [
        {
            "title": "洛杉磯道奇",
            "target": "MLB",
            "lat": "34.0737551",
            "lng": "-118.2394257"
        },
        {
            "title": "洛杉磯天使",
            "target": "MLB",
            "lat": "33.7998982",
            "lng": "-117.8831352"
        },
        {
            "title": "紐約洋基",
            "target": "MLB",
            "lat": "40.8293382",
            "lng": "-73.9272403"
        },
        {
            "title": "芝加哥小熊",
            "target": "MLB",
            "lat": "41.9483377",
            "lng": "-87.6549269"
        },
        {
            "title": "亞特蘭大勇士",
            "target": "MLB",
            "lat": "33.8912297",
            "lng": "-84.4678832"
        },
        {
            "title": "底特律老虎",
            "target": "MLB",
            "lat": "42.3394472",
            "lng": "-83.0489655"
        },
        {
            "title": "休士頓太空人",
            "target": "MLB",
            "lat": "29.7567837",
            "lng": "-95.3553106"
        },
        {
            "title": "聖路易紅雀",
            "target": "MLB",
            "lat": "38.6231104",
            "lng": "-90.1922560"
        },
        {
            "title": "匹茲堡海盜",
            "target": "MLB",
            "lat": "40.4470195",
            "lng": "-80.0064144"
        },
        {
            "title": "科羅拉多洛磯",
            "target": "MLB",
            "lat": "39.7555291",
            "lng": "-104.9941391"
        },
        {
            "title": "聖地牙哥教士",
            "target": "MLB",
            "lat": "32.7071098",
            "lng": "-117.1570783"
        },
        {
            "title": "奧克蘭運動家(過渡)",
            "target": "MLB",
            "lat": "38.5799610",
            "lng": "-121.5142487"
        },
        {
            "title": "堪薩斯皇家",
            "target": "MLB",
            "lat": "39.0511211",
            "lng": "-94.4808756"
        },
        {
            "title": "多倫多藍鳥",
            "target": "MLB",
            "lat": "43.6416469",
            "lng": "-79.3884268"
        },
        {
            "title": "辛辛那提紅人",
            "target": "MLB",
            "lat": "39.0974999",
            "lng": "-84.5073194"
        },
        {
            "title": "費城費城人",
            "target": "MLB",
            "lat": "39.9064867",
            "lng": "-75.1671391"
        },
        {
            "title": "西雅圖水手",
            "target": "MLB",
            "lat": "47.5916312",
            "lng": "-122.3326261"
        },
        {
            "title": "邁阿密馬林魚",
            "target": "MLB",
            "lat": "25.7783322",
            "lng": "-80.2196105"
        },
        {
            "title": "坦帕灣光芒",
            "target": "MLB",
            "lat": "27.9796600",
            "lng": "-82.5061190"
        },
        {
            "title": "密爾瓦基釀酒人",
            "target": "MLB",
            "lat": "43.0283166",
            "lng": "-87.9713105"
        },
        {
            "title": "華盛頓國民",
            "target": "MLB",
            "lat": "38.8731856",
            "lng": "-77.0074007"
        },
        {
            "title": "亞利桑那響尾蛇",
            "target": "MLB",
            "lat": "33.4455313",
            "lng": "-112.0666769"
        },
        {
            "title": "芝加哥白襪",
            "target": "MLB",
            "lat": "41.8307253",
            "lng": "-87.6347687"
        },
        {
            "title": "巴爾的摩金鶯",
            "target": "MLB",
            "lat": "39.2840353",
            "lng": "-76.6216353"
        },
        {
            "title": "克里夫蘭守護者",
            "target": "MLB",
            "lat": "41.4959891",
            "lng": "-81.6853529"
        },
        {
            "title": "紐約大都會",
            "target": "MLB",
            "lat": "40.7573071",
            "lng": "-73.8458857"
        },
        {
            "title": "波士頓紅襪",
            "target": "MLB",
            "lat": "42.3468587",
            "lng": "-71.0972071"
        },
        {
            "title": "舊金山巨人",
            "target": "MLB",
            "lat": "37.7786849",
            "lng": "-122.3893348"
        },
        {
            "title": "明尼蘇達雙城",
            "target": "MLB",
            "lat": "44.9818716",
            "lng": "-93.2776391"
        },
        {
            "title": "德州遊騎兵",
            "target": "MLB",
            "lat": "32.7470434",
            "lng": "-97.0831980"
        }
    ],
    "NBA-東區": [
        {
            "title": "波士頓塞爾提克(TD花園)",
            "target": "NBA-東區",
            "lat": "42.3662571",
            "lng": "-71.0621402"
        },
        {
            "title": "紐約尼克(麥迪遜廣場花園)",
            "target": "NBA-東區",
            "lat": "40.7507157",
            "lng": "-73.9934601"
        },
        {
            "title": "費城76人(富國銀行中心)",
            "target": "NBA-東區",
            "lat": "39.9013578",
            "lng": "-75.1719258"
        },
        {
            "title": "多倫多暴龍(豐業銀行體育館)",
            "target": "NBA-東區",
            "lat": "43.6435980",
            "lng": "-79.3791096"
        },
        {
            "title": "布魯克林籃網(巴克萊中心)",
            "target": "NBA-東區",
            "lat": "40.6828091",
            "lng": "-73.9754156"
        },
        {
            "title": "密爾瓦基公鹿(第一服務論壇)",
            "target": "NBA-東區",
            "lat": "43.0451899",
            "lng": "-87.9173540"
        },
        {
            "title": "克里夫蘭騎士(速貸球館)",
            "target": "NBA-東區",
            "lat": "41.4967241",
            "lng": "-81.6880252"
        },
        {
            "title": "芝加哥公牛(聯合中心)",
            "target": "NBA-東區",
            "lat": "41.8808265",
            "lng": "-87.6741061"
        },
        {
            "title": "印第安納溜馬(班克斯人壽球館)",
            "target": "NBA-東區",
            "lat": "39.7641918",
            "lng": "-86.1555581"
        },
        {
            "title": "底特律活塞(小凱薩體育館)",
            "target": "NBA-東區",
            "lat": "42.3418356",
            "lng": "-83.0545860"
        },
        {
            "title": "邁阿密熱火(卡西亞中心)",
            "target": "NBA-東區",
            "lat": "25.7815656",
            "lng": "-80.1870011"
        },
        {
            "title": "奧蘭多魔術(安麗中心)",
            "target": "NBA-東區",
            "lat": "28.5392804",
            "lng": "-81.3838400"
        },
        {
            "title": "亞特蘭大老鷹(州立農業球館)",
            "target": "NBA-東區",
            "lat": "33.7575756",
            "lng": "-84.3962866"
        },
        {
            "title": "夏洛特黃蜂(光譜中心)",
            "target": "NBA-東區",
            "lat": "35.2253704",
            "lng": "-80.8393038"
        },
        {
            "title": "華盛頓巫師(第一資本體育館)",
            "target": "NBA-東區",
            "lat": "38.8983345",
            "lng": "-77.0208138"
        }
    ],
    "NBA-西區": [
        {
            "title": "丹佛金塊(鮑爾體育館)",
            "target": "NBA-西區",
            "lat": "39.7488003",
            "lng": "-105.0075880"
        },
        {
            "title": "明尼蘇達灰狼(標靶中心)",
            "target": "NBA-西區",
            "lat": "44.9795310",
            "lng": "-93.2759980"
        },
        {
            "title": "奧克拉荷馬雷霆(Paycom中心)",
            "target": "NBA-西區",
            "lat": "35.4636850",
            "lng": "-97.5150467"
        },
        {
            "title": "猶他爵士(達美航空中心)",
            "target": "NBA-西區",
            "lat": "40.7684550",
            "lng": "-111.9010605"
        },
        {
            "title": "波特蘭拓荒者(摩達中心)",
            "target": "NBA-西區",
            "lat": "45.5317229",
            "lng": "-122.6668637"
        },
        {
            "title": "金州勇士(Chase中心)",
            "target": "NBA-西區",
            "lat": "37.7682134",
            "lng": "-122.3878825"
        },
        {
            "title": "洛杉磯湖人(加密貨幣網體育館)",
            "target": "NBA-西區",
            "lat": "34.0431775",
            "lng": "-118.2672648"
        },
        {
            "title": "洛杉磯快艇(直覺巨蛋)",
            "target": "NBA-西區",
            "lat": "33.9440652",
            "lng": "-118.3421771"
        },
        {
            "title": "鳳凰城太陽(足跡中心)",
            "target": "NBA-西區",
            "lat": "33.4459518",
            "lng": "-112.0711030"
        },
        {
            "title": "沙加緬度國王(金州第一中心)",
            "target": "NBA-西區",
            "lat": "38.5804309",
            "lng": "-121.4996441"
        },
        {
            "title": "達拉斯獨行俠(美國航空中心)",
            "target": "NBA-西區",
            "lat": "32.7905892",
            "lng": "-96.8101849"
        },
        {
            "title": "休士頓火箭(豐田中心)",
            "target": "NBA-西區",
            "lat": "29.7511169",
            "lng": "-95.3621958"
        },
        {
            "title": "曼斐斯灰熊(聯邦快遞廣場)",
            "target": "NBA-西區",
            "lat": "35.1382909",
            "lng": "-90.0505756"
        },
        {
            "title": "紐奧良鵜鶘(冰沙國王中心)",
            "target": "NBA-西區",
            "lat": "29.9493510",
            "lng": "-90.0820138"
        },
        {
            "title": "聖安東尼奧馬刺(AT&T中心)",
            "target": "NBA-西區",
            "lat": "29.4271789",
            "lng": "-98.4374115"
        }
    ],
    "Asia": [
        {
            "title": "東京代代木公園",
            "target": "Asia",
            "lat": "35.6705670",
            "lng": "139.6951980",
            "time": 1704295169258
        },
        {
            "title": "東京上野公園",
            "target": "Asia",
            "lat": "35.7155410",
            "lng": "139.7732390",
            "time": 1704295243573
        },
        {
            "title": "東京台場",
            "target": "Asia",
            "lat": "35.6245950",
            "lng": "139.7754360",
            "time": 1704295303591
        },
        {
            "title": "東京迪士尼樂園",
            "target": "Asia",
            "lat": "35.6364470",
            "lng": "139.8809240",
            "time": 1704295389038
        },
        {
            "title": "東京千代田區皇居",
            "target": "Asia",
            "lat": "35.6860450",
            "lng": "139.7558280",
            "time": 1704295480357
        },
        {
            "title": "泰國曼谷倫批尼公園",
            "target": "Asia",
            "lat": "13.7299050",
            "lng": "100.5391150",
            "time": 1704298322273
        },
        {
            "title": "馬來西亞吉隆坡旺沙瑪珠",
            "target": "Asia",
            "lat": "3.1947520",
            "lng": "101.7358620",
            "time": 1704298554259
        },
        {
            "title": "新加坡淡濱尼",
            "target": "Asia",
            "lat": "1.3065550",
            "lng": "103.9066560",
            "time": 1704302804527
        },
        {
            "title": "印度泰姬瑪哈陵",
            "target": "Asia",
            "lat": "27.1745240",
            "lng": "78.0420260",
            "time": 1704302887802
        },
        {
            "title": "南韓首爾",
            "target": "Asia",
            "lat": "37.5592140",
            "lng": "126.9946040",
            "time": 1704302992148
        },
        {
            "title": "大阪難波道頓堀",
            "target": "Asia",
            "lat": "34.6688190",
            "lng": "135.5014030",
            "time": 1704303077531
        },
        {
            "title": "日本京都相國寺",
            "target": "Asia",
            "lat": "35.0299270",
            "lng": "135.7606690",
            "time": 1704303197735
        },
        {
            "title": "橫濱市橫濱公園",
            "target": "Asia",
            "lat": "35.4448240",
            "lng": "139.6388670",
            "time": 1704303327074
        },
        {
            "title": "東京新宿駅",
            "target": "Asia",
            "lat": "35.6894250",
            "lng": "139.6988460",
            "time": 1704303591404
        },
        {
            "title": "東京秋葉原駅",
            "target": "Asia",
            "lat": "35.6981380",
            "lng": "139.7742220",
            "time": 1704303686427
        },
        {
            "title": "東京明治神宮外苑",
            "target": "Asia",
            "lat": "35.6711370",
            "lng": "139.7197110",
            "time": 1704303827527
        },
        {
            "title": "千葉海濱幕張",
            "target": "Asia",
            "lat": "35.6537200",
            "lng": "140.0303140",
            "time": 1704303952625
        },
        {
            "title": "東京都練馬駅",
            "target": "Asia",
            "lat": "35.7372680",
            "lng": "139.6545430",
            "time": 1704304318275
        },
        {
            "title": "東京都中野駅",
            "target": "Asia",
            "lat": "35.7066190",
            "lng": "139.6657770",
            "time": 1704304377452
        },
        {
            "title": "東京港區芝公園和東京鐵塔",
            "target": "Asia",
            "lat": "35.6574240",
            "lng": "139.7482250",
            "time": 1704304507428
        },
        {
            "title": "東京都日本橋寶可夢中心DX",
            "target": "Asia",
            "lat": "35.6802720",
            "lng": "139.7744060",
            "time": 1704304650429
        },
        {
            "title": "東京都豐島區寶可夢中心Mega",
            "target": "Asia",
            "lat": "35.7287810",
            "lng": "139.7189840",
            "time": 1704304713707
        },
        {
            "title": "東京都澀谷區寶可夢中心",
            "target": "Asia",
            "lat": "35.6620320",
            "lng": "139.6985230",
            "time": 1704304884253
        },
        {
            "title": "印度孟買(點特多)",
            "target": "Asia",
            "lat": "18.9318550",
            "lng": "72.8339380",
            "time": 1704306303457
        },
        {
            "title": "印尼萬隆遊樂園區",
            "target": "Asia",
            "lat": "-6.9114170",
            "lng": "107.6134450",
            "time": 1704361601980
        },
        {
            "title": "印尼萬隆沙爹大樓區域(點特多)",
            "lat": "-6.9008070",
            "lng": "107.6188800"
        },
        {
            "title": "南韓首爾樂天世界購物城(點超多)",
            "target": "Asia",
            "lat": "37.5102670",
            "lng": "127.0981410",
            "time": 1704362373442
        },
        {
            "title": "泰國曼谷練功區",
            "target": "Asia",
            "lat": "13.7324910",
            "lng": "100.5316030",
            "time": 1725367417964
        },
        {
            "title": "印尼雅加達Central Park Mall",
            "target": "Asia",
            "lat": "-6.1774500",
            "lng": "106.7904690",
            "time": 1726914204739
        },
        {
            "title": "新加坡小印度區",
            "target": "Asia",
            "lat": "1.3070450",
            "lng": "103.8500990",
            "time": 1743201015555
        },
        {
            "title": "新加坡中峇魯",
            "target": "Asia",
            "lat": "1.2850570",
            "lng": "103.8328820",
            "time": 1743201094922
        }
    ],
    "Fight": [
        {
            "title": "打鉄豆花",
            "target": "Fight",
            "lat": "24.1743930",
            "lng": "120.6480630",
            "time": 1677568482828
        },
        {
            "title": "中央公園左側兩道館",
            "target": "Fight",
            "lat": "24.1848670",
            "lng": "120.6529680",
            "time": 1677568618081
        },
        {
            "title": "逢甲大學學思湖兩道館",
            "target": "Fight",
            "lat": "24.1815780",
            "lng": "120.6479620",
            "time": 1677568683906
        },
        {
            "title": "逢甲大學圖書館兩道館",
            "target": "Fight",
            "lat": "24.1786710",
            "lng": "120.6492220",
            "time": 1677568757870
        },
        {
            "title": "福星公園兩道館",
            "target": "Fight",
            "lat": "24.1717300",
            "lng": "120.6486420",
            "time": 1677568918680
        },
        {
            "title": "新光三越兩道館",
            "target": "Fight",
            "lat": "24.1657190",
            "lng": "120.6439580",
            "time": 1677569130220
        },
        {
            "title": "全家上石店",
            "target": "Fight",
            "lat": "24.1691630",
            "lng": "120.6444880",
            "time": 1677569304543
        },
        {
            "title": "中港交流道兩道館",
            "target": "Fight",
            "lat": "24.1711330",
            "lng": "120.6353400",
            "time": 1677569388920
        }
    ],
    "North America": [
        {
            "title": "紐約中央公園",
            "target": "North America",
            "lat": "40.7657780",
            "lng": "-73.9760240",
            "time": 1704295559143
        },
        {
            "title": "加州洛杉磯",
            "target": "North America",
            "lat": "34.0568710",
            "lng": "-118.2477280",
            "time": 1704295618279
        },
        {
            "title": "加州舊金山39號碼頭",
            "target": "North America",
            "lat": "37.8087110",
            "lng": "-122.4102270",
            "time": 1704295668403
        },
        {
            "title": "紐約時代廣場",
            "target": "North America",
            "lat": "40.7552050",
            "lng": "-73.9829970",
            "time": 1704296510837
        },
        {
            "title": "美國芝加哥千禧公園",
            "target": "North America",
            "lat": "41.8818450",
            "lng": "-87.6183730",
            "time": 1704296779405
        },
        {
            "title": "舊金山Niantic總部",
            "target": "North America",
            "lat": "37.7894000",
            "lng": "-122.4016000",
            "time": 1704297451418
        },
        {
            "title": "洛杉磯聖塔莫尼卡碼頭",
            "target": "North America",
            "lat": "34.0092200",
            "lng": "-118.4972550",
            "time": 1704297856940
        },
        {
            "title": "美國加州迪士尼樂園",
            "target": "North America",
            "lat": "33.8122390",
            "lng": "-117.9189830",
            "time": 1704297939418
        },
        {
            "title": "加拿大多倫多",
            "target": "North America",
            "lat": "43.6398020",
            "lng": "-79.3916830",
            "time": 1704300916847
        },
        {
            "title": "夏威夷威基基海灘",
            "target": "North America",
            "lat": "21.2838950",
            "lng": "-157.8352060",
            "time": 1704305109962
        },
        {
            "title": "美國鳯凰城動物園",
            "target": "North America",
            "lat": "33.4495200",
            "lng": "-111.9493250",
            "time": 1704362011921
        }
    ],
    "Europe": [
        {
            "title": "西班牙薩拉戈薩練功區",
            "lat": "41.6616000",
            "lng": "-0.8946000"
        },
        {
            "title": "英國海德公園",
            "target": "Europe",
            "lat": "51.5022730",
            "lng": "-0.1774050",
            "time": 1704296965230
        },
        {
            "title": "法國巴黎羅浮宮",
            "target": "Europe",
            "lat": "48.8609250",
            "lng": "2.3355710",
            "time": 1704297031724
        },
        {
            "title": "德國柏林",
            "target": "Europe",
            "lat": "52.4555110",
            "lng": "13.5105190",
            "time": 1704297329342
        },
        {
            "title": "英國倫敦西敏寺大笨鐘",
            "target": "Europe",
            "lat": "51.5009120",
            "lng": "-0.1260850",
            "time": 1704298075941
        },
        {
            "title": "義大利羅馬競技場",
            "target": "Europe",
            "lat": "41.8897930",
            "lng": "12.4931960",
            "time": 1704298235605
        },
        {
            "title": "義大利威尼斯",
            "target": "Europe",
            "lat": "45.4378470",
            "lng": "12.3196910",
            "time": 1704298770694
        },
        {
            "title": "荷蘭阿姆斯特丹海尼根音樂廳",
            "target": "Europe",
            "lat": "52.3117000",
            "lng": "4.9450810",
            "time": 1704298922319
        },
        {
            "title": "西班牙巴塞隆那",
            "target": "Europe",
            "lat": "41.3762000",
            "lng": "2.1694620",
            "time": 1704299014308
        },
        {
            "title": "葡萄牙里斯本條約",
            "target": "Europe",
            "lat": "38.7248830",
            "lng": "-9.1496510",
            "time": 1704299114207
        },
        {
            "title": "比利時布魯塞爾",
            "target": "Europe",
            "lat": "50.8460650",
            "lng": "4.3644890",
            "time": 1704299208844
        },
        {
            "title": "西班牙瓦倫西亞(點超多)",
            "target": "Europe",
            "lat": "39.4780790",
            "lng": "-0.3802500",
            "time": 1704306615886
        },
        {
            "title": "西班牙馬德里",
            "target": "Europe",
            "lat": "40.4147600",
            "lng": "-3.6900430",
            "time": 1704306675620
        },
        {
            "title": "摩納哥蒙地卡羅",
            "target": "Europe",
            "lat": "43.7383320",
            "lng": "7.4275560",
            "time": 1704306735781
        },
        {
            "title": "奧地利維也納",
            "target": "Europe",
            "lat": "48.2083150",
            "lng": "16.3725840",
            "time": 1704307089565
        },
        {
            "title": "希臘雅典",
            "target": "Europe",
            "lat": "37.9635380",
            "lng": "23.7396100",
            "time": 1704307141627
        },
        {
            "title": "匈牙利布達佩斯瑪格麗特島(點超多)",
            "target": "Europe",
            "lat": "47.5303470",
            "lng": "19.0515820",
            "time": 1704354218322
        },
        {
            "title": "西班牙塞維利亞瑪麗亞路易莎公園",
            "target": "Europe",
            "lat": "37.3783980",
            "lng": "-5.9873120",
            "time": 1704355150626
        },
        {
            "title": "英國切斯特菲爾德皇后公園(點超多)",
            "lat": "53.2326940",
            "lng": "-1.4333630"
        },
        {
            "title": "義大利米蘭主教座堂",
            "target": "Europe",
            "lat": "45.4645290",
            "lng": "9.1899310",
            "time": 1704361133930
        },
        {
            "title": "克羅埃西亞蕯格勒布(點超多)",
            "target": "Europe",
            "lat": "45.8105090",
            "lng": "15.9783050",
            "time": 1704362086540
        }
    ],
    "South America": [
        {
            "title": "巴西聖保羅伊比拉布埃拉公園",
            "target": "South America",
            "lat": "-23.5873980",
            "lng": "-46.6576090",
            "time": 1704296289778
        },
        {
            "title": "巴西阿雷格里港",
            "target": "South America",
            "lat": "-30.0350540",
            "lng": "-51.2406360",
            "time": 1704296415537
        },
        {
            "title": "巴西聖保羅孔索拉桑",
            "target": "South America",
            "lat": "-23.5512000",
            "lng": "-46.6584000",
            "time": 1704296901693
        },
        {
            "title": "巴西里約熱內盧基督像山下",
            "target": "South America",
            "lat": "-22.9671440",
            "lng": "-43.2229130",
            "time": 1704305876124
        },
        {
            "title": "巴西聖保羅因達亞爾(點超多)",
            "target": "South America",
            "lat": "-26.8937440",
            "lng": "-49.2305980",
            "time": 1704354585344
        }
    ],
    "Oceania": [
        {
            "title": "澳大利亞悉尼",
            "target": "Oceania",
            "lat": "-33.8711320",
            "lng": "151.2065980",
            "time": 1704296675486
        },
        {
            "title": "澳大利亞墨爾本亞伯特公園",
            "target": "Oceania",
            "lat": "-37.8485490",
            "lng": "144.9678790",
            "time": 1704297702660
        },
        {
            "title": "澳大利亞雪梨歌劇院",
            "target": "Oceania",
            "lat": "-33.8576710",
            "lng": "151.2148620",
            "time": 1704298161535
        },
        {
            "title": "紐西蘭北方奧克蘭",
            "target": "Oceania",
            "lat": "-36.8613590",
            "lng": "174.7700670",
            "time": 1704305271459
        },
        {
            "title": "紐西蘭中區威靈頓",
            "target": "Oceania",
            "lat": "-41.2988420",
            "lng": "174.7774980",
            "time": 1704305351780
        },
        {
            "title": "澳大利亞珀斯",
            "target": "Oceania",
            "lat": "-31.9616870",
            "lng": "115.8418640",
            "time": 1704305494773
        },
        {
            "title": "澳大利亞阿得雷德",
            "target": "Oceania",
            "lat": "-34.9217180",
            "lng": "138.5978740",
            "time": 1704305610283
        }
    ],
    "Middle East": [
        {
            "title": "土耳其伊茲密爾",
            "target": "Middle East",
            "lat": "38.4628940",
            "lng": "27.2162750",
            "time": 1704297211079
        },
        {
            "title": "阿聯酋杜拜",
            "target": "Middle East",
            "lat": "25.0748590",
            "lng": "55.1312230",
            "time": 1704297265161
        },
        {
            "title": "以色列特拉維夫",
            "target": "Middle East",
            "lat": "32.0771780",
            "lng": "34.7862680",
            "time": 1704306080403
        },
        {
            "title": "以色列耶路撒冷",
            "target": "Middle East",
            "lat": "31.7781250",
            "lng": "35.2044670",
            "time": 1704306149662
        },
        {
            "title": "杜拜地球村(點超多)",
            "target": "Middle East",
            "lat": "25.0674610",
            "lng": "55.3073490",
            "time": 1704353818947
        }
    ],
    "South Africa": [
        {
            "title": "埃及開羅阿斯旺",
            "target": "South Africa",
            "lat": "30.0599430",
            "lng": "31.2116770",
            "time": 1704301521235
        },
        {
            "title": "南非開普敦",
            "target": "South Africa",
            "lat": "-33.9293290",
            "lng": "18.4143120",
            "time": 1704301826026
        },
        {
            "title": "坦尚尼亞三蘭港",
            "target": "South Africa",
            "lat": "-6.8162160",
            "lng": "39.2867360",
            "time": 1704302230275
        },
        {
            "title": "南非約翰尼斯堡",
            "target": "South Africa",
            "lat": "-26.1924830",
            "lng": "28.0304630",
            "time": 1704302645286
        }
    ],
    "Middle America": [
        {
            "title": "墨西哥艾美達中央公園",
            "target": "Middle America",
            "lat": "19.4351180",
            "lng": "-99.1447300",
            "time": 1725769906897
        },
        {
            "title": "墨西哥革命紀念塔",
            "target": "Middle America",
            "lat": "19.4361600",
            "lng": "-99.1546210",
            "time": 1725802364283
        },
        {
            "title": "墨西哥寶可夢Play補給站",
            "target": "Middle America",
            "lat": "19.4315220",
            "lng": "-99.1485110",
            "time": 1725802606854
        }
    ]
}